[{"Name":"Katherine Bourgon","Country":"Canada","City":"Ottawa","location":{"coords":[{"latitude":45.4215296,"longitude":-75.69719309999999,"country":"Canada","city":"Ottawa","state":"Ontario","stateCode":"ON","zipcode":null,"streetName":null,"streetNumber":null,"countryCode":"CA"}]}},{"Name":"Jonathan Prentice","Country":"United States","City":"Buffalo","location":{"coords":[{"latitude":42.88644679999999,"longitude":-78.8783689,"country":"United States","city":"Buffalo","state":"New York","stateCode":"NY","zipcode":null,"streetName":null,"streetNumber":null,"countryCode":"US"}]}},{"Name":"Maya Bourgon","Country":"Canada","City":"Unionville","location":{"coords":[{"latitude":43.8655329,"longitude":-79.31068619999999,"country":"Canada","city":"Markham","state":"Ontario","stateCode":"ON","zipcode":"L3R","streetName":null,"streetNumber":null,"countryCode":"CA"}]}},{"Name":"Adam Sturman","Country":"New Zealand","City":"Otumoetai","location":{"coords":[{"latitude":-37.6700645,"longitude":176.1497283,"country":"New Zealand","city":"Tauranga","state":"Bay Of Plenty","stateCode":"Bay Of Plenty","zipcode":"3110","streetName":null,"streetNumber":null,"countryCode":"NZ"}]}},{"Name":"Lee ann Thomas","Country":"South Africa","City":"East London","location":{"coords":[{"latitude":-32.9833333,"longitude":27.8666667,"country":"South Africa","city":"East London","state":"Eastern Cape","stateCode":"EC","zipcode":null,"streetName":null,"streetNumber":null,"countryCode":"ZA"}]}},{"Name":"Guillermo Machado","Country":"Spain","City":"Santa Cruz de Tenerife","location":{"coords":[{"latitude":28.4636296,"longitude":-16.2518467,"country":"Spain","city":"Santa Cruz de Tenerife","state":"Canary Islands","stateCode":"CN","zipcode":null,"streetName":null,"streetNumber":null,"countryCode":"ES"}]}},{"Name":"Nicholas Martino","Country":"United States","City":"Federicksburg","location":{"coords":[{"latitude":38.3031837,"longitude":-77.4605399,"country":"United States","city":"Fredericksburg","state":"Virginia","stateCode":"VA","zipcode":null,"streetName":null,"streetNumber":null,"countryCode":"US"}]}},{"Name":"Lindsay Clark","Country":"United States","City":"Indianapolis","location":{"coords":[{"latitude":39.768403,"longitude":-86.158068,"country":"United States","city":"Indianapolis","state":"Indiana","stateCode":"IN","zipcode":null,"streetName":null,"streetNumber":null,"countryCode":"US"}]}},{"Name":"Garrett Austen","Country":"United States","City":"Gaithersburg","location":{"coords":[{"latitude":39.1434406,"longitude":-77.2013705,"country":"United States","city":"Gaithersburg","state":"Maryland","stateCode":"MD","zipcode":null,"streetName":null,"streetNumber":null,"countryCode":"US"}]}},{"Name":"Russell Cailey","Country":"United Kingdom","City":"Manchester","location":{"coords":[{"latitude":53.479324,"longitude":-2.2484851,"country":"United Kingdom","city":"Manchester","state":"England","stateCode":"England","zipcode":null,"streetName":null,"streetNumber":null,"countryCode":"GB"}]}},{"Name":"Breanna Reynolds","Country":"United States","City":"Peoria","location":{"coords":[{"latitude":40.6936488,"longitude":-89.5889864,"country":"United States","city":"Peoria","state":"Illinois","stateCode":"IL","zipcode":null,"streetName":null,"streetNumber":null,"countryCode":"US"}]}},{"Name":"Mattie Boyce","Country":"United States","City":"Oakland","location":{"coords":[{"latitude":37.8043637,"longitude":-122.2711137,"country":"United States","city":"Oakland","state":"California","stateCode":"CA","zipcode":null,"streetName":null,"streetNumber":null,"countryCode":"US"}]}},{"Name":"Jane Cheu Hwei Mian","Country":"Singapore","City":"Singapore","location":{"coords":[{"latitude":1.2800945,"longitude":103.8509491,"country":"Singapore","city":"Singapore","state":null,"stateCode":null,"zipcode":null,"streetName":null,"streetNumber":null,"countryCode":"SG"}]}},{"Name":"Ana del Moral","Country":"Argentina","City":"Buenos Aires","location":{"coords":[{"latitude":-34.6037232,"longitude":-58.3815931,"country":"Argentina","city":"Buenos Aires","state":null,"stateCode":null,"zipcode":null,"streetName":null,"streetNumber":null,"countryCode":"AR"}]}},{"Name":"Jarret Voytilla","Country":"Canada","City":"Vancouver","location":{"coords":[{"latitude":49.261226,"longitude":-123.1139268,"country":"Canada","city":"Vancouver","state":"British Columbia","stateCode":"BC","zipcode":null,"streetName":null,"streetNumber":null,"countryCode":"CA"}]}},{"Name":"Tessa Siebrits","Country":"South Africa","City":"Johannesburg","location":{"coords":[{"latitude":-26.2041028,"longitude":28.0473051,"country":"South Africa","city":"Johannesburg","state":"Gauteng","stateCode":"GP","zipcode":null,"streetName":null,"streetNumber":null,"countryCode":"ZA"}]}},{"Name":"Yosefa Gilon","Country":"United States","City":"San Francisco","location":{"coords":[{"latitude":37.7749295,"longitude":-122.4194155,"country":"United States","city":"San Francisco","state":"California","stateCode":"CA","zipcode":null,"streetName":null,"streetNumber":null,"countryCode":"US"}]}},{"Name":"Mary Cooper","Country":"United Kingdom","City":"Dorset","location":{"coords":[{"latitude":50.7390661,"longitude":-2.3382346,"country":"United Kingdom","city":null,"state":"England","stateCode":"England","zipcode":null,"streetName":null,"streetNumber":null,"countryCode":"GB"}]}},{"Name":"Andrew Jenkinson","Country":"United Kingdom","City":"Warwickshire","location":{"coords":[{"latitude":52.2671353,"longitude":-1.4675216,"country":"United Kingdom","city":null,"state":"England","stateCode":"England","zipcode":null,"streetName":null,"streetNumber":null,"countryCode":"GB"}]}},{"Name":"Alun Cooper","Country":"United Kingdom","City":"Dorset","location":{"coords":[{"latitude":50.7390661,"longitude":-2.3382346,"country":"United Kingdom","city":null,"state":"England","stateCode":"England","zipcode":null,"streetName":null,"streetNumber":null,"countryCode":"GB"}]}}]